,City,Cloudiness,Country,Date,Humidity,Lat,Lng,Max Temp,Wind Speed
0,Sao Gabriel da Cachoeira,75,BR,1562609072,83,-0.13,-67.09,77.0,4.7
1,Vaini,94,IN,1562609073,85,15.34,74.49,78.94,11.88
2,Salinopolis,28,BR,1562609075,78,-0.61,-47.36,81.46,15.77
3,Rikitea,100,PF,1562609076,93,-23.12,-134.97,71.2,18.12
4,Port Alfred,74,ZA,1562609077,70,-33.59,26.89,64.0,5.99
5,Bogorodskoye,97,RU,1562609079,93,52.37,140.44,53.92,1.52
6,Bluff,16,AU,1562609080,91,-23.58,149.07,55.0,1.7
7,Iqaluit,75,CA,1562609081,81,63.75,-68.52,50.0,3.36
8,Thompson,90,CA,1562609083,88,55.74,-97.86,64.4,5.82
9,Albany,1,US,1562609085,47,42.65,-73.75,84.0,4.7
10,Novovasylivka,100,UA,1562609087,97,48.2,37.04,64.0,3.91
11,Bandarbeyla,0,SO,1562609088,61,9.49,50.81,82.0,23.58
12,Fortuna,20,ES,1562609090,69,38.18,-1.13,82.0,11.41
13,Sao Joao da Barra,75,BR,1562609017,47,-21.64,-41.05,75.2,2.24
14,Avarua,33,CK,1562608833,88,-21.21,-159.78,69.8,2.24
15,Ulladulla,0,AU,1562609095,76,-35.36,150.48,50.0,13.87
16,Lasa,0,CY,1562609097,88,34.92,32.53,80.6,6.93
17,Kruisfontein,100,ZA,1562609098,74,-34.0,24.73,56.98,10.31
18,Hilo,90,US,1562609099,83,19.71,-155.08,79.0,6.93
19,Goshen,1,US,1562609032,47,41.58,-85.83,82.0,7.47
20,Shakiso,40,ET,1562609102,96,5.77,38.9,53.2,3.13
21,Tasiilaq,5,GL,1562609103,75,65.61,-37.64,42.8,18.34
22,Hermanus,83,ZA,1562609105,72,-34.42,19.24,63.0,5.01
23,Merauke,90,ID,1562609107,82,-8.49,140.4,78.76,20.8
24,Lakes Entrance,6,AU,1562609108,90,-37.88,147.99,39.99,10.27
25,Norman Wells,75,CA,1562609109,62,65.28,-126.83,59.0,13.87
26,Huarmey,51,PE,1562609026,87,-10.07,-78.15,63.1,12.91
27,Mataura,100,NZ,1562609113,85,-46.19,168.86,46.99,11.01
28,Ribeira Grande,20,PT,1562609114,69,38.52,-28.7,73.4,14.99
29,Ushuaia,0,AR,1562609115,65,-54.81,-68.31,46.4,4.7
30,Khandyga,40,RU,1562609116,72,62.65,135.58,55.9,4.43
31,Chokurdakh,0,RU,1562609117,65,70.62,147.9,58.24,8.21
32,San Patricio,0,PY,1562609119,57,-26.98,-56.83,63.28,6.17
33,Springfield,40,US,1562609105,38,42.1,-72.59,82.99,3.22
34,Yellowknife,75,CA,1562609121,66,62.45,-114.38,50.0,12.75
35,Saint-Pierre,0,FR,1562609122,35,48.95,4.24,73.4,19.46
36,Cherskiy,75,RU,1562609123,52,68.75,161.3,64.72,7.61
37,Richards Bay,0,ZA,1562609126,77,-28.77,32.06,69.58,11.97
38,Albacete,20,ES,1562609127,57,39.0,-1.86,84.0,14.99
39,Ploemeur,0,FR,1562609128,50,47.73,-3.43,82.0,11.41
40,Zhigansk,9,RU,1562609129,87,66.77,123.37,60.4,8.1
41,Parfenyevo,0,RU,1562609130,86,58.48,43.41,56.44,2.55
42,Bonavista,0,CA,1562609132,56,48.65,-53.11,60.22,15.19
43,Rey Bouba,100,CM,1562609133,93,8.67,14.18,73.18,2.15
44,Paita,0,PE,1562608878,290,-5.09,-81.11,62.6,14.99
45,Kodiak,75,US,1562609135,23,39.95,-94.76,88.0,8.05
46,Busselton,61,AU,1562609136,72,-33.64,115.35,52.0,15.39
47,Xifeng,0,CN,1562609137,69,42.73,124.72,67.6,3.67
48,Los Llanos de Aridane,20,ES,1562609139,64,28.66,-17.92,75.2,14.99
49,Punta Arenas,90,CL,1562609140,93,-53.16,-70.91,41.0,6.93
50,Saint-Philippe,1,CA,1562609141,34,45.36,-73.48,82.0,6.82
51,Mareeba,75,AU,1562609143,94,-16.99,145.42,69.8,9.17
52,Arraial do Cabo,40,BR,1562609144,53,-22.97,-42.02,71.6,6.93
53,Provideniya,64,RU,1562609146,30,64.42,-173.23,66.34,5.64
54,Hobyo,17,SO,1562609147,74,5.35,48.53,78.94,25.95
55,Dzerzhinskoye,57,RU,1562609150,69,56.84,95.22,59.32,2.57
56,Bredasdorp,50,ZA,1562609151,59,-34.53,20.04,66.2,12.75
57,Nikolskoye,75,RU,1562609153,77,59.7,30.79,62.01,8.95
58,Kapaa,90,US,1562609154,78,22.08,-159.32,80.6,16.11
59,Narsaq,75,GL,1562609156,20,60.91,-46.05,64.4,25.28
60,Luderitz,0,NA,1562609157,67,-26.65,15.16,62.6,16.11
61,East London,0,ZA,1562609159,63,-33.02,27.91,60.8,8.05
62,Westport,1,US,1562609117,57,41.14,-73.36,79.0,3.36
63,Beyneu,0,KZ,1562609162,18,45.32,55.19,87.94,16.53
64,Papara,20,BR,1562609163,58,-3.98,-38.73,86.0,17.22
65,Bambanglipuro,13,ID,1562609165,82,-7.95,110.28,75.7,17.72
66,Jamestown,0,AU,1562609153,87,-33.21,138.6,44.56,4.43
67,Mahebourg,75,MU,1562609167,88,-20.41,57.7,72.0,3.36
68,Carnarvon,0,ZA,1562609168,60,-30.97,22.13,53.38,7.11
69,Rio Gallegos,90,AR,1562609169,93,-51.62,-69.22,42.8,8.05
70,Cabildo,75,CL,1562609170,82,-32.43,-71.07,57.2,5.82
71,Faanui,34,PF,1562609172,82,-16.48,-151.75,79.12,16.73
72,Gejiu,100,CN,1562609173,97,23.36,103.16,64.54,5.41
73,Barrow,100,AR,1562609175,59,-38.31,-60.23,52.48,13.35
74,Omsukchan,10,RU,1562609176,72,62.53,155.8,49.96,2.42
75,Melbourne,20,AU,1562609006,87,-37.81,144.96,48.99,11.41
76,Pakxan,91,LA,1562609179,95,18.39,103.66,73.72,3.51
77,Puerto Ayora,40,EC,1562609180,61,-0.74,-90.35,80.6,18.34
78,Oyem,75,GA,1562609181,91,1.6,11.57,69.58,3.06
79,Naila,0,DE,1562609182,47,50.33,11.71,66.0,8.05
80,Soroti,45,UG,1562608987,71,1.71,33.61,73.72,1.5
81,Port Lincoln,0,AU,1562609186,78,-34.72,135.86,58.96,12.71
82,Bull Savanna,74,JM,1562609187,76,17.89,-77.59,83.26,9.84
83,Atuona,0,PF,1562609188,67,-9.8,-139.03,80.2,11.01
84,Stanovoye,100,RU,1562609189,95,52.76,38.34,59.32,7.61
85,Casper,1,US,1562609044,27,42.87,-106.31,82.99,16.11
86,Belaya Gora,69,RU,1562609192,47,68.54,146.19,62.74,9.08
87,Qaqortoq,75,GL,1562609193,20,60.72,-46.03,64.4,25.28
88,Tevaitoa,42,PF,1562609194,81,-16.78,-151.5,78.76,17.69
89,Longyearbyen,75,NO,1562609195,76,78.22,15.63,51.8,3.36
90,Mokhotlong,0,LS,1562609197,46,-29.29,29.06,36.46,2.82
91,Ariquemes,0,BR,1562609198,33,-9.91,-63.03,90.28,3.06
92,Ferrol,40,ES,1562609134,88,43.48,-8.23,69.01,11.41
93,Khatanga,77,RU,1562609200,94,71.98,102.47,43.3,3.65
94,Luganville,78,VU,1562609201,97,-15.51,167.18,67.42,2.24
95,Dikson,100,RU,1562609202,97,73.51,80.55,32.32,16.55
96,Qaanaaq,100,GL,1562609204,92,77.48,-69.36,38.44,3.78
97,Hamilton,90,CA,1562609117,47,43.26,-79.87,81.0,6.93
98,Kingisepp,96,RU,1562609206,85,59.38,28.61,57.88,6.64
99,Sioux Lookout,90,CA,1562609018,54,50.1,-91.92,80.6,12.75
100,Cururupu,22,BR,1562609208,91,-1.82,-44.87,79.3,4.36
101,Codrington,90,AU,1562609209,100,-28.95,153.24,55.0,8.05
102,Borazjan,0,IR,1562609211,49,29.27,51.21,93.2,16.11
103,Saldanha,60,PT,1562609212,40,41.42,-6.55,74.62,10.49
104,Vanimo,61,PG,1562609213,79,-2.67,141.3,81.1,5.91
105,Kahului,90,US,1562609214,100,20.89,-156.47,78.8,24.16
106,Komsomolskiy,76,RU,1562609216,68,67.55,63.78,47.8,11.12
107,Hasaki,75,JP,1562609217,88,35.73,140.83,64.4,9.17
108,Butaritari,100,KI,1562609218,73,3.07,172.79,82.0,5.1
109,Ozernovskiy,100,RU,1562609221,97,51.5,156.52,42.04,4.94
110,Tiksi,83,RU,1562609223,84,71.64,128.87,52.84,5.61
111,Buala,51,SB,1562609224,85,-8.15,159.59,78.58,8.75
112,Hobart,20,AU,1562609225,70,-42.88,147.33,46.4,9.17
113,Birin,75,NP,1562609226,100,26.89,88.07,78.8,5.82
114,Guerrero Negro,48,MX,1562609228,88,27.97,-114.04,64.54,10.11
115,Along,100,IN,1562609229,99,28.17,94.8,60.94,2.15
116,Odienne,84,CI,1562609230,83,9.51,-7.57,80.74,3.18
117,Joao Pinheiro,1,BR,1562609118,45,-17.74,-46.17,76.24,5.41
118,Bethel,1,US,1562609006,93,60.79,-161.76,69.8,4.7
119,Ancud,90,CL,1562609233,93,-41.87,-73.83,50.0,14.99
120,Obanazawa,99,JP,1562609235,89,38.6,140.43,51.58,5.46
121,Namatanai,100,PG,1562609236,83,-3.66,152.44,78.76,16.31
122,Manati,0,AL,1562609237,65,41.76,19.67,80.6,3.36
123,Waipawa,23,NZ,1562609238,93,-39.94,176.59,34.0,2.17
124,Kaitangata,100,NZ,1562609240,66,-46.28,169.85,46.99,15.01
125,Antofagasta,20,CL,1562608952,63,-23.65,-70.4,60.8,11.41
126,Cape Town,75,ZA,1562609006,87,-33.93,18.42,63.0,11.41
127,Gamba,100,CN,1562609244,63,28.28,88.52,47.26,5.03
128,Hovd,75,NO,1562609245,87,63.83,10.7,55.0,17.22
129,Maniitsoq,84,GL,1562609246,54,65.42,-52.9,55.36,8.68
130,Benalla,90,AU,1562609248,100,-36.55,145.99,53.01,2.24
131,Marawi,77,PH,1562609249,91,8.0,124.29,75.0,4.0
132,Kingaroy,40,AU,1562609250,93,-26.54,151.84,44.6,1.61
133,Port Keats,0,AU,1562609251,52,-14.25,129.55,68.32,7.87
134,Caconda,6,AO,1562609253,16,-13.73,15.06,62.02,4.56
135,Smolenka,84,PL,1562609254,95,54.15,22.76,53.02,12.91
136,Katsuura,75,JP,1562609255,94,33.93,134.5,71.6,10.29
137,Bambous Virieux,75,MU,1562609256,88,-20.34,57.76,72.0,3.36
138,Nago,40,IT,1562609257,87,45.88,10.89,91.4,13.87
139,Souillac,0,FR,1562609260,33,45.6,-0.6,87.8,10.29
140,Necochea,100,AR,1562609261,74,-38.55,-58.74,54.0,4.0
141,Severo-Kurilsk,100,RU,1562609262,98,50.68,156.12,41.86,13.13
142,Esmeraldas,0,BR,1562609265,43,-19.76,-44.31,69.8,11.41
143,Umkomaas,0,ZA,1562609266,85,-30.21,30.8,61.0,3.76
144,Sjenica,37,RS,1562609267,79,43.27,20.0,64.9,2.46
145,Umm Lajj,0,SA,1562609269,73,25.02,37.27,84.52,3.15
146,Rio Grande,0,BR,1562609271,59,-32.03,-52.1,60.8,4.7
147,Changde,100,CN,1562609272,93,29.04,111.68,67.42,5.08
148,Castro,90,CL,1562609273,93,-42.48,-73.76,50.0,14.99
149,Sobolevo,4,RU,1562609274,93,54.43,31.9,55.0,5.93
150,Chuy,27,UY,1562609042,58,-33.69,-53.46,54.82,4.47
151,Alofi,84,NU,1562609276,93,-19.06,-169.92,66.2,1.12
152,Nome,1,US,1562609278,63,30.04,-94.42,93.0,4.7
153,Suntar,18,RU,1562609279,87,62.16,117.65,58.78,3.76
154,Letlhakane,0,BW,1562609280,15,-21.42,25.59,59.68,5.88
155,Garowe,2,SO,1562609281,37,8.41,48.48,87.58,19.8
156,Lebu,84,ET,1562609283,76,8.96,38.73,59.86,2.53
157,Ponta do Sol,0,BR,1562609284,49,-20.63,-46.0,67.42,5.82
158,Balkanabat,0,TM,1562609285,46,39.51,54.36,86.86,6.89
159,Grootfontein,0,NA,1562609286,10,-19.56,18.1,64.4,4.7
160,Le Port,75,FR,1562609288,88,42.87,1.37,84.99,5.82
161,Lompoc,90,US,1562609289,77,34.64,-120.46,68.0,8.05
162,Constitucion,40,MX,1562609290,59,23.99,-104.67,70.0,6.78
163,Rafai,100,CF,1562609292,96,4.95,23.92,69.58,2.64
164,Darhan,1,MN,1562609293,58,49.49,105.92,62.92,3.53
165,Seoul,1,KR,1562609273,82,37.57,126.98,71.6,1.12
166,Marystown,0,CA,1562609170,62,47.17,-55.16,60.94,15.41
167,Port Hardy,90,CA,1562609296,87,50.7,-127.42,55.4,2.24
168,Menongue,0,AO,1562609297,16,-14.66,17.68,58.06,4.52
169,New Norfolk,20,AU,1562609299,70,-42.78,147.06,46.4,9.17
170,Koygorodok,43,RU,1562609300,94,60.44,51.01,55.0,2.28
171,Geraldton,90,CA,1562609301,47,49.72,-86.95,77.0,4.7
172,Aasiaat,99,GL,1562609303,68,68.71,-52.87,43.84,10.71
173,Cumberland,75,US,1562609053,41,41.97,-71.43,82.99,3.4
174,Pangnirtung,90,CA,1562609306,100,66.15,-65.72,44.6,10.29
175,Gabu,43,CN,1562609307,95,34.78,103.0,35.02,1.99
176,Homer,1,US,1562609308,82,59.64,-151.54,75.0,3.36
177,Saskylakh,73,RU,1562609309,95,71.97,114.09,48.88,6.6
178,Mococa,0,BR,1562609311,45,-21.46,-47.0,66.2,5.88
179,Morondava,40,MG,1562609312,72,-20.3,44.28,75.16,20.78
180,Santa Vitoria do Palmar,16,BR,1562609313,63,-33.52,-53.37,51.94,4.97
181,Hithadhoo,34,MV,1562609314,78,-0.6,73.08,84.52,14.18
182,Keti Bandar,45,PK,1562609315,85,24.14,67.45,83.08,21.25
183,Zyryanka,0,RU,1562609317,57,65.73,150.89,58.96,14.65
184,Lyuban,12,BY,1562609318,87,52.8,28.0,56.8,9.24
185,Oranjestad,20,AW,1562609303,62,12.52,-70.03,89.6,23.04
186,Half Moon Bay,90,US,1562609320,87,37.46,-122.43,69.01,8.05
187,Carutapera,42,BR,1562609321,71,-1.2,-46.02,83.44,7.99
188,Pombas,0,BR,1562609322,30,-15.9,-54.74,84.88,2.77
189,Quelimane,2,MZ,1562609325,94,-17.88,36.89,62.56,4.36
190,Nizwa,46,OM,1562609048,23,22.93,57.53,88.66,5.37
191,Tura,39,RU,1562609327,84,64.27,100.22,53.92,10.33
192,Tongliao,96,CN,1562609328,65,43.61,122.27,71.2,2.3
193,Vardo,90,US,1562609329,94,39.62,-77.74,73.99,3.36
194,Lata,100,IN,1562609331,98,30.78,78.62,48.52,4.5
195,Moerai,43,PF,1562609332,79,-22.43,-151.33,73.0,16.93
196,Samarai,66,PG,1562609333,89,-10.62,150.67,71.02,5.01
197,Payo,91,ID,1562609334,95,-3.75,103.64,65.26,3.76
198,Maldonado,0,UY,1562609074,50,-34.91,-54.96,57.2,5.82
199,Baruun-Urt,96,MN,1562609337,73,46.68,113.28,62.38,5.79
200,Tsaratanana,57,MG,1562609338,65,-16.8,47.65,72.1,4.21
201,Charlestown,1,US,1562609339,53,41.38,-71.64,82.0,4.7
202,Pangoa,24,PE,1562609340,45,-12.12,-73.0,82.9,4.12
203,Manacor,40,ES,1562609342,65,39.57,3.21,84.99,19.46
204,Paamiut,98,GL,1562609343,64,61.99,-49.67,49.24,7.25
205,Vilhena,0,BR,1562609280,39,-12.74,-60.15,82.4,5.82
206,Dauphin,20,CA,1562609345,69,51.15,-100.04,75.2,3.36
207,Gat,99,SN,1562609346,69,14.69,-16.54,82.4,13.87
208,Airai,38,TL,1562609347,87,-8.93,125.41,67.24,4.32
209,Clyde River,20,CA,1562609349,76,70.47,-68.59,53.6,8.05
210,Karratha,0,AU,1562609350,43,-20.74,116.85,67.78,9.01
211,Meridian,1,US,1562609351,45,43.61,-116.39,73.4,10.63
212,Ketchikan,90,US,1562609168,93,55.34,-131.65,57.2,13.87
213,Cockburn Town,2,TC,1562609137,76,21.46,-71.14,82.18,16.64
214,Ballarat,47,AU,1562609355,88,-37.56,143.86,44.01,5.19
215,Cidreira,18,BR,1562609357,50,-30.17,-50.22,60.76,1.21
216,Vanavara,27,RU,1562609359,84,60.35,102.28,57.52,2.46
217,Okhotsk,19,RU,1562609361,91,59.36,143.24,43.12,2.17
218,Teknaf,100,BD,1562609362,81,20.86,92.31,85.42,20.54
219,Pevek,37,RU,1562609363,69,69.7,170.27,44.2,2.3
220,Sumenep,13,ID,1562609364,88,-7.02,113.87,71.56,9.89
221,Dingle,100,PH,1562609365,85,11.0,122.67,74.62,2.04
222,Klaksvik,20,FO,1562609165,81,62.23,-6.59,53.6,5.82
223,Kuching,75,MY,1562609368,88,1.56,110.34,80.6,4.7
224,General Roca,0,AR,1562609369,62,-39.03,-67.58,53.6,3.36
225,Uyuni,0,BO,1562609370,15,-20.46,-66.82,51.76,4.45
226,Sassandra,100,CI,1562609371,92,4.95,-6.09,72.64,6.13
227,Ostra,100,AT,1562609373,46,48.44,15.48,72.0,13.87
228,Lagoa,20,PT,1562609374,77,37.14,-8.45,75.99,20.8
229,Borogontsy,89,RU,1562609375,91,62.67,131.17,56.62,9.17
230,Marevo,40,BA,1562609376,47,43.57,18.7,78.8,8.05
231,Alekseyevsk,45,RU,1562609377,73,57.84,108.35,58.42,1.39
232,Isperih,23,BG,1562609379,64,43.72,26.83,75.0,1.01
233,Daro,100,GN,1562609380,96,8.52,-9.57,72.46,4.94
234,North Bend,90,US,1562609108,72,43.41,-124.22,70.0,6.93
235,Bria,99,CF,1562609382,96,6.54,21.99,69.22,2.84
236,San Francisco,40,CO,1562609276,64,1.17,-76.88,69.8,5.82
237,Bruck an der Leitha,0,AT,1562609384,40,48.03,16.78,73.99,13.87
238,Peniche,40,PT,1562609385,73,39.36,-9.38,72.0,11.41
239,Mirabad,0,IR,1562609387,11,28.27,61.33,72.82,3.47
240,Chukhloma,7,RU,1562609388,90,58.76,42.68,56.26,3.27
241,Porto Novo,0,BR,1562609389,42,-23.68,-45.44,68.0,6.93
242,Vagur,60,FO,1562609390,81,61.47,-6.81,51.04,3.76
243,Boa Vista,75,BR,1562609391,62,2.82,-60.67,84.2,3.36
244,Anadyr,0,RU,1562609394,82,64.73,177.51,55.4,2.24
245,Mossendjo,52,CG,1562609395,78,-2.95,12.72,70.12,2.17
246,Vostok,1,RU,1562609396,92,46.45,135.83,63.1,3.56
247,Nyurba,18,RU,1562609398,83,63.29,118.35,59.5,3.6
248,Kaoma,0,ZM,1562609399,17,-14.8,24.8,62.92,6.08
249,Namwala,16,ZM,1562609400,14,-15.75,26.45,60.58,4.68
250,Salitral,75,CR,1562609401,69,9.79,-84.12,77.0,10.29
251,Oriximina,73,BR,1562609402,60,-1.77,-55.87,87.04,2.26
252,Leshukonskoye,72,RU,1562609407,57,64.9,45.76,58.24,4.36
253,Cruzeiro do Sul,0,BR,1562609408,61,-7.63,-72.67,78.8,5.82
254,Surovatikha,20,RU,1562609409,68,55.77,43.9,68.0,2.24
255,Gold Coast,36,AU,1562609410,93,-28.0,153.41,57.0,4.7
256,Santana do Livramento,10,BR,1562609411,64,-30.89,-55.53,56.44,7.81
257,Halesowen,40,GB,1562609413,56,52.45,-2.05,73.0,6.93
258,Mlonggo,0,ID,1562609228,79,-6.53,110.7,78.94,6.17
259,Rocha,47,UY,1562609415,58,-34.48,-54.34,55.72,4.12
260,Hofn,90,IS,1562609416,76,64.25,-15.21,48.2,9.17
261,Mandalgovi,75,MN,1562609418,50,45.76,106.27,62.38,5.91
262,Buraydah,0,SA,1562609419,20,26.33,43.97,102.2,3.36
263,Strathmore,75,CA,1562609420,67,51.04,-113.4,64.99,5.82
264,Willowmore,76,ZA,1562609421,77,-33.3,23.49,52.84,5.12
265,Lorengau,96,PG,1562609422,80,-2.02,147.27,80.38,10.56
266,Lufilufi,100,WS,1562609424,94,-13.87,-171.6,78.01,5.99
267,Noumea,90,NC,1562609287,82,-22.28,166.46,57.2,9.46
268,Zalegoshch,98,RU,1562609426,85,52.9,36.89,59.5,5.82
269,Rawson,31,AR,1562609427,44,-43.3,-65.11,56.08,4.92
270,Nhamunda,19,BR,1562609428,71,-2.19,-56.71,84.7,3.71
271,Porbandar,40,IN,1562609430,79,21.64,69.61,86.0,9.17
272,Salamanca,20,MX,1562609431,87,20.57,-101.19,79.0,1.66
273,Vicosa do Ceara,76,BR,1562609193,52,-3.56,-41.09,87.22,2.48
274,Ialibu,100,PG,1562609433,99,-6.28,143.99,65.08,0.74
275,Qarchi Gak,5,AF,1562609436,13,37.04,66.79,96.8,11.41
276,Nouadhibou,0,MR,1562609438,69,20.93,-17.03,73.4,24.16
277,Mar del Plata,48,AR,1562609439,60,-46.43,-67.52,49.6,11.03
278,Jalu,0,LY,1562609440,19,29.03,21.55,92.26,8.14
279,Teguldet,99,RU,1562609442,83,57.31,88.17,60.04,5.64
280,Esperance,0,AU,1562609443,87,-33.86,121.89,46.4,8.05
281,Damavand,0,IR,1562609444,17,35.72,52.07,91.4,4.7
282,Luan,20,CH,1562609445,60,46.36,6.98,73.4,10.29
283,Tuktoyaktuk,75,CA,1562609447,81,69.44,-133.03,46.4,4.7
284,Launceston,40,AU,1562609448,93,-41.43,147.14,42.01,9.17
285,Hambantota,100,LK,1562609164,83,6.12,81.12,83.08,15.82
286,Upernavik,100,GL,1562609451,77,72.79,-56.15,41.5,14.45
287,Sassari,0,IT,1562609452,66,40.72,8.56,86.0,8.05
288,Haines Junction,97,CA,1562609454,41,60.75,-137.51,65.98,2.62
289,Hasanabad,0,IR,1562609455,20,35.37,51.24,91.4,6.93
290,Point Fortin,75,TT,1562609456,59,10.16,-61.68,89.6,17.22
291,Port-Gentil,90,GA,1562609458,88,-0.72,8.78,75.2,9.17
292,Beringovskiy,29,RU,1562609459,61,63.05,179.32,57.34,2.82
293,Hami,84,CN,1562609460,16,42.84,93.51,85.06,7.18
294,Sibolga,100,ID,1562609461,73,1.74,98.78,82.72,9.69
295,Aklavik,75,CA,1562609465,81,68.22,-135.01,59.0,3.36
296,Tambacounda,0,SN,1562609466,74,13.77,-13.67,87.8,6.93
297,Trinidad,0,BO,1562609350,47,-14.83,-64.9,78.8,3.36
298,Mahibadhoo,90,MV,1562609469,74,3.78,72.97,84.34,11.39
299,Dargaville,100,NZ,1562609471,67,-35.94,173.86,56.62,10.87
300,Port Moresby,20,PG,1562609472,88,-9.47,147.16,73.4,11.41
301,Dohrighat,75,IN,1562609473,100,26.27,83.51,80.6,4.7
302,Narwar,100,IN,1562609474,92,25.64,77.91,75.88,6.22
303,Vestmanna,20,FO,1562609476,81,62.16,-7.17,53.6,5.82
304,Peleduy,22,RU,1562609477,76,59.63,112.75,58.24,1.39
305,Arawa,1,ID,1562609478,81,-3.93,119.75,78.76,16.06
306,Lavrentiya,30,RU,1562609480,34,65.58,-170.99,67.06,2.53
307,Kapit,87,MY,1562609482,97,2.02,112.94,71.74,0.74
308,Balkhash,36,KZ,1562609483,43,46.84,74.98,80.2,20.96
309,Tuatapere,100,NZ,1562609484,83,-46.13,167.69,46.0,11.01
310,Sao Filipe,79,CV,1562609485,79,14.9,-24.5,72.82,13.87
311,Ixtapa,75,MX,1562609486,66,20.71,-105.21,88.0,3.62
312,Torbay,20,CA,1562609487,35,47.66,-52.73,75.0,17.22
313,Oranjemund,35,ZA,1562609489,82,-28.55,16.43,56.26,18.54
314,Yerbogachen,78,RU,1562609490,58,61.28,108.01,65.8,6.71
315,Siderno,40,IT,1562609491,62,38.28,16.3,91.4,3.36
316,Georgetown,40,GY,1562609400,70,6.8,-58.16,89.6,11.41
317,Vao,0,EE,1562609493,73,59.1,26.19,59.5,7.94
318,Sakete,20,BJ,1562609495,78,6.74,2.66,80.6,11.41
319,Baherden,10,TM,1562609496,38,38.44,57.43,82.54,4.23
320,Yenagoa,99,NG,1562609497,94,4.92,6.26,73.72,5.66
321,Sitka,81,US,1562609498,72,37.17,-99.65,82.99,7.0
322,Katangli,72,RU,1562609500,93,51.71,143.23,44.92,6.76
323,Nushki,0,PK,1562609501,10,29.55,66.02,83.62,1.59
324,Rogozno,20,PL,1562609502,51,52.75,16.99,64.99,10.29
325,Porto Belo,0,BR,1562609503,59,-27.15,-48.54,70.0,4.7
326,Iracoubo,46,GF,1562609504,84,5.48,-53.21,81.82,5.95
327,Bahia Blanca,100,AR,1562609506,51,-38.72,-62.27,57.7,10.09
328,Carauari,66,BR,1562609508,49,-4.88,-66.9,85.42,3.53
329,Taoudenni,52,ML,1562609509,7,22.68,-3.98,113.86,4.7
330,Govindgarh,83,IN,1562609510,45,27.5,77.0,94.24,12.35
331,Nabire,100,ID,1562609511,99,-3.36,135.5,69.58,3.15
332,Maun,0,BW,1562609513,15,-19.99,23.42,71.6,4.7
333,Kavaratti,100,IN,1562609514,80,10.57,72.64,83.44,15.59
334,San Quintin,100,PH,1562609516,93,17.54,120.52,74.44,2.66
335,Kaeo,94,NZ,1562609517,94,-35.1,173.78,44.01,1.99
336,San Juan de Uraba,86,CO,1562609518,79,8.76,-76.53,81.28,3.13
337,Chapais,75,CA,1562609520,38,49.78,-74.86,73.4,14.99
338,Port Elizabeth,100,US,1562609521,88,39.31,-74.98,73.99,10.29
339,Zhanakorgan,0,KZ,1562609522,16,43.91,67.25,80.2,11.43
340,Abrau-Dyurso,20,RU,1562609523,83,44.7,37.6,75.0,8.95
341,Salalah,75,OM,1562609525,84,17.01,54.1,86.0,6.93
342,Bundaberg,75,AU,1562609405,87,-24.87,152.35,57.0,3.36
343,Duluth,1,US,1562609351,72,46.77,-92.13,82.99,9.17
344,Brezova pod Bradlom,0,SK,1562609529,37,48.66,17.54,73.4,10.29
345,Baykit,33,RU,1562609530,90,61.68,96.39,51.4,5.32
346,Mitchell,1,US,1562609531,65,43.71,-98.03,82.99,18.34
347,Ubatuba,0,BR,1562609533,42,-23.43,-45.08,68.0,6.93
348,Vila Velha,20,BR,1562609477,58,-3.71,-38.6,86.0,17.22
349,Mehamn,0,NO,1562609535,81,71.03,27.85,50.0,6.93
350,Natal,40,BR,1562609536,69,-5.81,-35.21,82.4,16.11
351,Cayenne,54,GF,1562609537,74,4.94,-52.33,84.2,10.29
352,Mount Isa,90,AU,1562609539,72,-20.73,139.49,59.0,4.7
353,Lake Cowichan,75,CA,1562609540,63,48.82,-124.05,66.99,3.36
354,Poum,40,MK,1562609541,54,41.28,20.71,80.6,2.24
355,Gladstone,12,AU,1562609542,82,-23.84,151.26,59.0,5.82
356,Xichang,100,CN,1562609543,99,27.88,102.25,57.16,2.13
357,Sungairaya,82,ID,1562609545,79,0.7,108.9,83.98,17.49
358,Fort Nelson,75,CA,1562609547,87,58.81,-122.69,50.0,3.36
359,Beloha,0,MG,1562609548,87,-25.17,45.06,64.18,4.76
360,Oktyabrskoye,0,RU,1562609550,82,56.73,85.44,68.0,4.47
361,Bratslav,6,UA,1562609553,55,48.83,28.94,64.4,13.42
362,Devonport,98,AU,1562609554,82,-41.18,146.36,45.0,1.99
363,Hof,0,DE,1562609555,47,50.32,11.92,66.2,8.05
364,Madona,96,LV,1562609556,97,56.85,26.22,54.1,5.48
365,Trairi,77,BR,1562609557,49,-3.28,-39.27,87.04,7.74
366,Durban,77,CA,1562609280,81,51.93,-101.44,72.64,8.93
367,Mitsamiouli,20,KM,1562609560,73,-11.38,43.28,77.0,2.24
368,Talakan,72,RU,1562609561,92,50.29,130.28,65.98,2.51
369,Svolvaer,0,NO,1562609562,52,68.23,14.57,66.2,11.41
370,Gliwice,0,PL,1562609563,38,50.29,18.67,64.0,12.75
371,Augusto Correa,39,BR,1562609403,83,-1.02,-46.63,82.36,3.67
372,Dzhebariki-Khaya,35,RU,1562609566,68,62.22,135.8,56.08,4.97
373,Leningradskiy,51,RU,1562609567,64,69.38,178.42,51.22,8.03
374,Mwingi,8,KE,1562609570,68,-0.93,38.07,69.76,11.45
375,Palmer,75,AU,1562609571,93,-34.85,139.16,48.99,6.93
376,Esparta,40,HN,1562609572,74,15.74,-87.18,86.0,8.05
377,Gilbues,3,BR,1562609573,35,-9.83,-45.34,88.84,11.92
378,Copiapo,75,CL,1562609290,67,-27.37,-70.33,59.0,3.36
379,Fare,42,PF,1562609575,81,-16.7,-151.02,78.76,17.69
380,Jumla,100,NP,1562609577,96,29.28,82.18,56.8,2.64
381,Portland,20,US,1562609578,36,43.66,-70.25,84.99,10.29
382,Liverpool,75,GB,1562609580,63,53.41,-2.98,69.01,11.41
383,Broken Hill,0,AU,1562609581,75,-31.97,141.45,42.8,3.22
384,Leh,1,IN,1562609582,50,34.16,77.58,40.78,5.08
385,Bousse,0,FR,1562609584,37,49.28,6.2,71.6,12.75
386,Eyl,0,SO,1562609585,57,7.98,49.82,82.72,24.4
387,Kavieng,100,PG,1562609586,71,-2.57,150.8,83.26,8.9
388,Shingu,100,JP,1562609587,98,33.72,135.99,63.46,4.03
389,Jalingo,100,NG,1562609589,68,10.3,10.93,79.48,7.63
390,Marzuq,70,YE,1562609590,35,14.4,46.47,84.52,4.99
391,Huicheng,20,CN,1562609591,83,23.03,116.29,84.2,6.71
392,Zambezi,30,ZM,1562609592,25,-13.55,23.12,62.92,5.23
393,Ulaangom,97,MN,1562609594,54,49.98,92.07,67.06,5.39
394,Lakatoro,33,VU,1562609595,76,-16.11,167.42,75.52,8.12
395,Sorland,90,NO,1562609596,100,67.67,12.69,55.4,14.99
396,Porto San Giorgio,40,IT,1562609597,55,43.18,13.79,87.8,6.93
397,Metro,85,ID,1562609598,92,-5.11,105.31,74.98,3.24
398,Scalea,17,IT,1562609600,35,39.82,15.79,87.01,2.39
399,Svetlaya,33,RU,1562609601,97,46.54,138.33,53.74,1.1
400,Atasu,0,KZ,1562609602,37,48.68,71.64,70.3,7.0
401,Lexington,40,US,1562609489,69,38.05,-84.5,87.01,4.7
402,Besancon,40,FR,1562609604,68,47.25,6.02,78.01,6.93
403,Laguna,52,BZ,1562609606,53,16.17,-88.94,90.82,7.25
404,Baillif,75,GP,1562609607,62,16.02,-61.75,87.8,18.34
405,Champerico,40,MX,1562609608,48,16.38,-93.6,87.8,8.05
406,Grindavik,75,IS,1562609609,66,63.84,-22.43,55.4,11.41
407,Tiznit,0,MA,1562609610,82,29.7,-9.73,67.6,23.58
408,Lukovetskiy,75,RU,1562609612,93,64.29,41.92,53.6,6.71
409,Casas Grandes,0,MX,1562609613,14,30.15,-110.24,88.66,5.93
410,Gimli,100,CA,1562609614,52,50.63,-96.99,81.0,4.0
411,Rome,0,IT,1562609319,69,41.89,12.48,89.6,6.93
412,Oudtshoorn,75,ZA,1562609616,72,-33.59,22.2,62.6,4.7
413,Mandali,0,IQ,1562609617,11,33.75,45.55,94.06,11.9
414,Cap Malheureux,75,MU,1562609619,88,-19.98,57.61,72.0,3.36
415,Aksarka,99,RU,1562609620,56,66.56,67.8,53.92,13.69
416,Cabo San Lucas,75,MX,1562609516,26,22.89,-109.91,96.01,6.93
417,Maracas,75,TT,1562609622,59,10.76,-61.44,89.6,17.22
418,Machinga,48,MW,1562609624,36,-15.18,35.3,65.44,5.64
419,Tautira,20,PF,1562609626,78,-17.73,-149.15,78.01,2.24
420,Monte Alegre de Minas,0,BR,1562609627,35,-18.87,-48.88,73.4,8.05
421,Hays,20,US,1562609435,66,38.88,-99.33,87.8,18.34
422,Elizabeth City,75,US,1562609453,70,36.3,-76.22,88.0,6.93
423,Nanortalik,100,GL,1562609630,45,60.14,-45.24,52.12,10.69
424,Coquimbo,75,CL,1562609633,67,-29.95,-71.34,66.0,4.7
425,Pisco,20,PE,1562609571,30,-13.71,-76.2,71.6,10.29
426,Muli,100,CN,1562609635,96,28.08,109.56,65.08,2.66
427,Lunenburg,3,CA,1562609636,47,44.38,-64.32,82.0,3.0
428,Lugovoy,99,RU,1562609639,88,59.72,65.88,56.98,6.76
429,Port Said,0,EG,1562609640,15,25.34,30.55,91.18,7.25
430,Preobrazheniye,29,RU,1562609641,94,42.9,133.91,53.38,0.96
431,Serrinha,100,BR,1562609642,80,-11.66,-39.0,70.66,12.82
432,Sao Jose de Mipibu,40,BR,1562609509,69,-6.07,-35.24,82.4,16.11
433,Dukat,0,AL,1562609645,58,40.25,19.57,81.0,4.0
434,Sabha,0,LY,1562609646,10,27.03,14.43,94.42,10.22
435,Veraval,0,FR,1562609647,40,49.65,0.71,73.99,11.41
436,Maningrida,0,AU,1562609648,95,-12.05,134.23,62.92,6.02
437,Beziers,0,FR,1562609650,61,43.35,3.22,86.0,5.82
438,Noshiro,88,JP,1562609651,74,40.21,140.05,60.94,3.89
439,Valdez,20,US,1562609652,72,61.13,-146.35,62.6,3.36
440,Ca Mau,60,VN,1562609654,92,9.18,105.15,78.4,3.36
441,Cambridge,1,CA,1562609621,44,43.39,-80.31,81.0,4.7
442,Araua,10,BR,1562609657,57,-0.84,-47.69,87.94,3.09
443,Aswan,0,EG,1562609658,12,24.09,32.9,91.36,10.22
444,Chulman,39,RU,1562609659,89,56.84,124.9,57.88,4.36
445,Dir,98,CM,1562609661,94,6.33,13.54,68.32,2.44
446,Kimbe,98,PG,1562609664,88,-5.56,150.15,72.1,3.33
447,Delvada,76,IN,1562609665,62,24.01,72.98,86.32,10.45
448,Sisimiut,92,GL,1562609666,67,66.94,-53.67,44.2,32.1
449,Pozo Colorado,0,PY,1562609668,39,-23.49,-58.8,71.56,7.31
450,Pitea,0,SE,1562609406,42,65.32,21.48,66.2,6.93
451,Lukang,40,TW,1562609670,83,24.06,120.44,82.99,12.75
452,Arona,0,IT,1562609671,27,45.76,8.56,89.6,5.82
453,Kuzhener,4,RU,1562609672,86,56.81,48.92,56.26,2.98
454,Ocampo,100,MX,1562609674,41,27.32,-102.4,79.66,6.55
455,Longyan,100,CN,1562609675,97,25.1,117.03,72.28,3.33
456,Cananeia,85,BR,1562609676,69,-25.01,-47.93,63.64,3.96
457,Vestmannaeyjar,40,IS,1562609676,87,63.44,-20.27,51.8,26.4
458,Belomorsk,13,RU,1562609678,81,64.52,34.76,49.78,11.61
459,Waingapu,63,ID,1562609680,92,-9.65,120.26,67.24,9.42
460,Port Augusta,0,AU,1562609681,100,-32.49,137.76,39.2,5.82
461,Ahipara,97,NZ,1562609676,66,-35.17,173.16,56.8,8.93
462,Buin,75,CL,1562609683,81,-33.73,-70.74,53.6,9.17
463,Hay River,75,CA,1562609685,75,60.82,-115.79,46.4,13.87
464,Bilibino,89,RU,1562609686,48,68.06,166.44,59.68,1.9
465,Srednekolymsk,0,RU,1562609687,53,67.46,153.71,61.66,7.07
466,Pitimbu,40,BR,1562609691,74,-7.47,-34.81,80.6,18.34
467,Vigrestad,75,NO,1562609692,71,58.57,5.7,55.4,19.46
468,Pokrovsk,100,RU,1562609694,93,61.48,129.14,63.46,3.36
469,Barra do Garcas,0,BR,1562609695,40,-15.89,-52.26,86.0,2.24
470,Nokha,34,IN,1562609697,43,27.56,73.47,93.52,25.32
471,Djambala,10,CG,1562609698,45,-2.55,14.76,78.22,5.84
472,Nuuk,40,GL,1562609699,30,64.17,-51.74,71.6,5.82
473,Marsa Matruh,0,EG,1562609517,78,31.35,27.25,80.6,10.29
474,Nantucket,1,US,1562609679,69,41.28,-70.1,79.0,4.7
475,Marsaxlokk,0,MT,1562609703,41,35.84,14.54,91.4,2.24
476,Townsville,90,AU,1562609704,88,-19.26,146.82,66.0,5.82
477,Jutai,10,BR,1562609705,59,-1.71,-47.89,88.66,4.92
478,Kununurra,0,AU,1562609708,76,-15.77,128.74,57.2,6.89
479,Podosinovets,94,RU,1562609709,93,60.28,47.06,57.16,3.6
480,Astana,0,KZ,1562609468,52,51.13,71.43,68.0,8.88
481,Hualmay,51,PE,1562609711,86,-11.1,-77.61,62.74,13.42
482,Talnakh,0,RU,1562609712,76,69.49,88.39,50.0,26.84
483,College,75,US,1562609541,56,64.86,-147.8,72.0,7.92
484,Elkhart,1,US,1562609715,48,37.01,-101.89,89.01,12.75
485,Itarema,56,BR,1562609716,68,-2.92,-39.92,83.62,11.56
486,Mocuba,58,MZ,1562609717,71,-16.84,36.99,62.38,4.03
487,Lulea,0,SE,1562609718,42,65.58,22.15,66.2,6.93
488,Pangody,85,RU,1562609720,65,65.85,74.49,51.4,14.2
489,Faya,0,SA,1562609722,77,18.39,42.45,73.4,8.05
490,Khani,75,GE,1562609723,78,41.96,42.96,75.2,5.82
491,Bathsheba,40,BB,1562609724,66,13.22,-59.52,87.8,20.8
492,Orahovac,40,XK,1562609725,47,42.4,20.65,77.0,5.82
493,Chake Chake,1,TZ,1562609726,79,-5.25,39.77,79.12,15.99
494,Linkou,41,CN,1562609728,93,45.29,130.27,64.72,1.59
495,Karachi,40,PK,1562609642,66,24.87,67.03,87.8,11.41
496,Pathein,75,MM,1562609730,88,16.78,94.73,79.84,8.25
497,Garden City,1,US,1562609512,45,43.62,-116.24,72.0,10.63
498,Quatre Cocos,75,MU,1562609732,94,-20.21,57.76,72.0,4.7
499,Port Hedland,0,AU,1562609733,67,-20.31,118.58,59.0,9.17
500,Yuli,100,CN,1562609735,99,24.82,106.77,67.78,2.73
501,Bubaque,99,GW,1562609736,90,11.28,-15.83,78.04,17.9
502,Yulara,0,AU,1562609737,56,-25.24,130.99,44.6,4.7
503,Biltine,99,TD,1562609739,60,14.53,20.93,83.44,22.19
504,Balaka,24,MW,1562609740,43,-14.99,34.96,55.9,5.99
505,Udachnyy,0,RU,1562609742,77,66.42,112.4,60.8,4.47
506,Altagracia de Orituco,8,VE,1562609743,85,9.86,-66.38,77.68,3.91
507,Roros,100,NO,1562609744,100,62.57,11.38,46.4,11.41
508,Dilla,6,ET,1562609745,62,6.41,38.31,75.52,5.37
509,Victoria,75,BN,1562609676,94,5.28,115.24,77.0,1.12
510,Synya,32,RU,1562609749,68,65.37,58.04,53.74,5.39
511,Damghan,3,IR,1562609750,79,36.17,54.34,62.74,2.24
512,Boke,100,GN,1562609751,86,10.95,-14.28,79.66,4.94
513,Coihaique,90,CL,1562609652,93,-45.58,-72.07,46.4,4.7
514,Jinxiang,99,CN,1562609753,66,35.07,116.31,73.54,5.23
515,Sucua,90,EC,1562609755,100,-2.46,-78.17,66.2,3.36
516,Anloga,20,GH,1562609756,74,5.79,0.9,80.6,9.17
517,Doha,0,QA,1562609687,11,25.29,51.53,105.8,14.99
518,Manokwari,52,ID,1562609604,80,-0.87,134.08,72.46,5.66
519,Nacogdoches,40,US,1562609490,70,31.6,-94.66,91.99,6.93
520,Fethiye,0,TR,1562609760,65,36.62,29.12,81.0,9.17
521,San Juan,75,AR,1562609764,22,-31.54,-68.53,60.4,2.24
522,Luena,0,AO,1562609765,28,-11.78,19.91,58.06,3.78
523,Hauterive,40,CA,1562609766,56,49.18,-68.27,73.4,17.22
524,Novyy Urengoy,78,RU,1562609767,60,66.08,76.63,52.12,14.65
525,Wloszczowa,52,PL,1562609769,40,50.85,19.97,62.01,1.99
526,Muborak,3,UZ,1562609770,19,39.25,65.15,91.54,12.26
527,Alta Floresta,0,BR,1562609771,28,-9.87,-56.08,93.2,6.93
528,Te Anau,100,NZ,1562609657,79,-45.41,167.72,41.68,10.74
529,Alice Springs,0,AU,1562609621,75,-23.7,133.88,44.6,4.7
530,Mount Gambier,90,AU,1562609666,100,-37.83,140.78,46.4,8.05
531,Nampula,0,MZ,1562609775,77,-15.12,39.26,68.0,6.93
532,Sterling,90,US,1562609777,88,39.0,-77.4,73.99,5.82
533,La Ronge,90,CA,1562609778,72,55.1,-105.3,59.0,9.17
534,Alice,52,ZA,1562609646,72,-32.79,26.83,53.38,4.85
535,Shelburne,1,CA,1562609683,41,44.08,-80.2,82.0,3.36
536,Saint George,20,GR,1562609781,43,39.45,22.34,93.2,6.93
537,Coahuayana,10,MX,1562609782,61,18.62,-100.35,88.12,2.62
538,Yamada,75,JP,1562609784,88,36.58,137.08,73.0,4.7
539,Yar-Sale,30,RU,1562609785,63,66.83,70.83,50.32,8.79
540,Piranshahr,44,IR,1562609786,28,36.7,45.14,62.02,8.48
541,El Alto,0,BO,1562609787,9,-16.5,-68.19,57.2,13.87
542,Marquette,5,US,1562609789,41,46.54,-87.4,79.0,3.36
543,Skegness,90,GB,1562609790,67,53.14,0.34,62.6,11.41
544,Panzhihua,100,CN,1562609791,94,26.59,101.72,67.96,1.57
545,Sinnamary,65,GF,1562609704,79,5.38,-52.96,81.28,11.1
546,Shahe,97,CN,1562609793,63,36.85,114.5,68.86,2.53
547,Zarubino,0,RU,1562609794,96,42.65,131.06,54.28,0.58
548,Sivaki,100,RU,1562609796,80,52.63,126.75,64.36,3.87
549,Benguela,0,AO,1562609797,88,-12.58,13.4,70.48,13.4
550,Wuhu,0,CN,1562609798,83,31.35,118.43,75.2,11.18
551,Bulgan,11,MN,1562609799,67,48.81,103.53,56.8,2.91
552,Ngunguru,100,NZ,1562609800,94,-35.62,174.5,44.01,1.99
553,Santo Domingo,40,DO,1562609776,66,18.48,-69.94,90.0,9.17
554,Maketu,39,NZ,1562609803,97,-37.76,176.45,48.99,1.63
555,Namibe,0,AO,1562609804,85,-15.19,12.15,68.5,4.0
556,Zhangjiakou,100,CN,1562609805,72,40.77,114.88,59.32,8.19
557,Gasa,100,BT,1562609806,96,27.91,89.73,41.14,4.94
558,Vila,0,IT,1562609808,27,45.18,8.4,88.0,5.82
559,Candido de Abreu,0,BR,1562609809,48,-24.57,-51.33,64.0,3.91
560,Hokitika,99,NZ,1562609810,75,-42.72,170.96,46.9,1.86
561,Puerto Maldonado,0,PE,1562609811,334,-12.59,-69.19,33.8,2.24
562,Chapleau,40,CA,1562609812,43,47.85,-83.4,71.6,3.36
563,Broome,40,GB,1562609813,63,52.47,1.45,66.0,11.41
564,Kirakira,82,SB,1562609815,86,-10.46,161.92,77.68,11.23
565,Santa Cruz,49,BR,1562609696,42,-6.22,-36.02,84.88,12.55
566,Balabac,1,PH,1562609817,77,7.99,117.06,80.92,3.69
567,Algiers,40,US,1562609818,49,29.94,-90.04,96.01,8.05
568,Scarborough,73,GB,1562609821,67,54.28,-0.41,64.99,8.05
569,Turukhansk,17,RU,1562609822,95,65.8,87.96,55.9,8.79
570,Kasongo-Lunda,36,CD,1562609823,24,-6.48,16.82,73.18,3.2
571,Galle,100,GN,1562609825,94,10.08,-12.83,73.18,3.2
572,Itoman,40,JP,1562609826,88,26.12,127.67,80.6,5.82
573,Yasnogorsk,81,RU,1562609828,86,54.48,37.69,57.88,3.89
574,Dunedin,98,NZ,1562609688,56,-45.87,170.5,46.99,8.01
575,Barranca,51,PE,1562609830,86,-10.75,-77.76,62.74,13.42
576,Jagdalpur,100,IN,1562609831,88,19.09,82.02,74.98,10.2
577,Weyburn,69,CA,1562609832,62,49.67,-103.85,79.0,4.0
578,Bud,40,NO,1562609834,76,62.91,6.91,57.2,12.75
579,Ayan,100,IR,1562609835,60,38.23,44.7,58.24,2.86
580,Olga,90,US,1562609836,72,34.11,-118.17,70.0,4.7
581,Domat,75,CH,1562609837,54,46.83,9.45,66.0,13.87
582,Novo Aripuana,92,BR,1562609693,79,-5.12,-60.38,82.18,1.68
583,Santo Antonio do Ica,51,BR,1562609840,48,-3.1,-67.94,87.22,3.96
584,Saint-Augustin,20,CA,1562609841,33,45.63,-73.98,82.0,4.7
585,Boca do Acre,0,BR,1562609842,37,-8.76,-67.39,90.64,1.74
586,Krasnyy Profintern,0,RU,1562609843,100,57.74,40.44,57.2,4.47
